{"meta":{"code":200,"requestId":"5bfcca644434b9532d58128c"},"response":{"venues":[{"id":"4f415376e4b08cc37282ff20","name":"Whole Foods Sushi Bar","location":{"address":"Whole Foods Market","lat":40.72399989837209,"lng":-73.99227661853082,"labeledLatLngs":[{"label":"display","lat":40.72399989837209,"lng":-73.99227661853082}],"distance":2749,"postalCode":"10012","cc":"US","city":"New York","state":"NY","country":"United States","formattedAddress":["Whole Foods Market","New York, NY 10012","United States"]},"categories":[{"id":"4bf58dd8d48988d1d2941735","name":"Sushi Restaurant","pluralName":"Sushi Restaurants","shortName":"Sushi","icon":{"prefix":"https:\/\/ss3.4sqi.net\/img\/categories_v2\/food\/sushi_","suffix":".png"},"primary":true}],"referralId":"v-1543293540","hasPerk":false},{"id":"5bca0ff80ff4f9002cd191b4","name":"Bento Sushi","location":{"address":"173 Broadway","lat":40.709963138251865,"lng":-74.01028184108397,"labeledLatLngs":[{"label":"display","lat":40.709963138251865,"lng":-74.01028184108397}],"distance":1408,"postalCode":"10007-3101","cc":"US","city":"New York","state":"NY","country":"United States","formattedAddress":["173 Broadway","New York, NY 10007-3101","United States"]},"categories":[{"id":"4bf58dd8d48988d1d2941735","name":"Sushi Restaurant","pluralName":"Sushi Restaurants","shortName":"Sushi","icon":{"prefix":"https:\/\/ss3.4sqi.net\/img\/categories_v2\/food\/sushi_","suffix":".png"},"primary":true}],"delivery":{"id":"64709","url":"https:\/\/www.seamless.com\/menu\/bento-sushi-173-broadway-new-york\/64709?affiliate=1131&utm_source=foursquare-affiliate-network&utm_medium=affiliate&utm_campaign=1131&utm_content=64709","provider":{"name":"seamless","icon":{"prefix":"https:\/\/fastly.4sqi.net\/img\/general\/cap\/","sizes":[40,50],"name":"\/delivery_provider_seamless_20180129.png"}}},"referralId":"v-1543293540","hasPerk":false},{"id":"53d3f607498edfb90a15baf5","name":"Blue Ribbon Sushi Bar","location":{"address":"200 Vesey St","lat":40.71274171124088,"lng":-74.01606481577463,"labeledLatLngs":[{"label":"display","lat":40.71274171124088,"lng":-74.01606481577463}],"distance":1962,"postalCode":"10281","cc":"US","city":"New York","state":"NY","country":"United States","formattedAddress":["200 Vesey St","New York, NY 10281","United States"]},"categories":[{"id":"4bf58dd8d48988d1d2941735","name":"Sushi Restaurant","pluralName":"Sushi Restaurants","shortName":"Sushi","icon":{"prefix":"https:\/\/ss3.4sqi.net\/img\/categories_v2\/food\/sushi_","suffix":".png"},"primary":true}],"delivery":{"id":"301235","url":"https:\/\/www.seamless.com\/menu\/blue-ribbon-sushi-bar-225-liberty-st-new-york\/301235?affiliate=1131&utm_source=foursquare-affiliate-network&utm_medium=affiliate&utm_campaign=1131&utm_content=301235","provider":{"name":"seamless","icon":{"prefix":"https:\/\/fastly.4sqi.net\/img\/general\/cap\/","sizes":[40,50],"name":"\/delivery_provider_seamless_20180129.png"}}},"referralId":"v-1543293540","hasPerk":false},{"id":"45ac12d6f964a5205d411fe3","name":"Blue Ribbon Sushi","location":{"address":"119 Sullivan St","crossStreet":"btwn Prince & Spring St","lat":40.726161490315945,"lng":-74.0026326791738,"labeledLatLngs":[{"label":"display","lat":40.726161490315945,"lng":-74.0026326791738}],"distance":2920,"postalCode":"10012","cc":"US","city":"New York","state":"NY","country":"United States","formattedAddress":["119 Sullivan St (btwn Prince & Spring St)","New York, NY 10012","United States"]},"categories":[{"id":"4bf58dd8d48988d1d2941735","name":"Sushi Restaurant","pluralName":"Sushi Restaurants","shortName":"Sushi","icon":{"prefix":"https:\/\/ss3.4sqi.net\/img\/categories_v2\/food\/sushi_","suffix":".png"},"primary":true}],"referralId":"v-1543293540","hasPerk":false},{"id":"4a5e00d9f964a520e2bd1fe3","name":"Shinju Sushi","location":{"address":"164 Pearl Street","crossStreet":"btwn Pine & Wall St.","lat":40.70607040649608,"lng":-74.00743262495199,"labeledLatLngs":[{"label":"display","lat":40.70607040649608,"lng":-74.00743262495199}],"distance":921,"postalCode":"10005","cc":"US","city":"Manhattan","state":"NY","country":"United States","formattedAddress":["164 Pearl Street (btwn Pine & Wall St.)","Manhattan, NY 10005","United States"]},"categories":[{"id":"4bf58dd8d48988d111941735","name":"Japanese Restaurant","pluralName":"Japanese Restaurants","shortName":"Japanese","icon":{"prefix":"https:\/\/ss3.4sqi.net\/img\/categories_v2\/food\/japanese_","suffix":".png"},"primary":true}],"venuePage":{"id":"412983221"},"referralId":"v-1543293540","hasPerk":false},{"id":"4b1ee4e1f964a520332124e3","name":"Kyoto Sushi","location":{"address":"115 Smith St","crossStreet":"at Pacific St","lat":40.68790826317978,"lng":-73.98964583333454,"labeledLatLngs":[{"label":"display","lat":40.68790826317978,"lng":-73.98964583333454}],"distance":1604,"postalCode":"11201","cc":"US","city":"Brooklyn","state":"NY","country":"United States","formattedAddress":["115 Smith St (at Pacific St)","Brooklyn, NY 11201","United States"]},"categories":[{"id":"4bf58dd8d48988d1d2941735","name":"Sushi Restaurant","pluralName":"Sushi Restaurants","shortName":"Sushi","icon":{"prefix":"https:\/\/ss3.4sqi.net\/img\/categories_v2\/food\/sushi_","suffix":".png"},"primary":true}],"delivery":{"id":"66932","url":"https:\/\/www.seamless.com\/menu\/kyoto-japanese-fusion-sushi-115-smith-st-brooklyn\/66932?affiliate=1131&utm_source=foursquare-affiliate-network&utm_medium=affiliate&utm_campaign=1131&utm_content=66932","provider":{"name":"seamless","icon":{"prefix":"https:\/\/fastly.4sqi.net\/img\/general\/cap\/","sizes":[40,50],"name":"\/delivery_provider_seamless_20180129.png"}}},"referralId":"v-1543293540","hasPerk":false},{"id":"50597c5ce4b05ea41644ac74","name":"Sushi of Gari Tribeca","location":{"address":"130 W Broadway","crossStreet":"Duane St.","lat":40.71668439227822,"lng":-74.00834342869238,"labeledLatLngs":[{"label":"display","lat":40.71668439227822,"lng":-74.00834342869238}],"distance":1986,"postalCode":"10013","cc":"US","city":"New York","state":"NY","country":"United States","formattedAddress":["130 W Broadway (Duane St.)","New York, NY 10013","United States"]},"categories":[{"id":"4bf58dd8d48988d1d2941735","name":"Sushi Restaurant","pluralName":"Sushi Restaurants","shortName":"Sushi","icon":{"prefix":"https:\/\/ss3.4sqi.net\/img\/categories_v2\/food\/sushi_","suffix":".png"},"primary":true}],"delivery":{"id":"292914","url":"https:\/\/www.seamless.com\/menu\/sushi-of-gari-130-w-broadway-new-york\/292914?affiliate=1131&utm_source=foursquare-affiliate-network&utm_medium=affiliate&utm_campaign=1131&utm_content=292914","provider":{"name":"seamless","icon":{"prefix":"https:\/\/fastly.4sqi.net\/img\/general\/cap\/","sizes":[40,50],"name":"\/delivery_provider_seamless_20180129.png"}}},"referralId":"v-1543293540","hasPerk":false},{"id":"4aad744bf964a520606020e3","name":"Sushi Azabu","location":{"address":"428 Greenwich St","crossStreet":"btwn Vestry St & Laight St","lat":40.72235543459842,"lng":-74.00974954506063,"labeledLatLngs":[{"label":"display","lat":40.72235543459842,"lng":-74.00974954506063}],"distance":2621,"postalCode":"10013","cc":"US","city":"New York","state":"NY","country":"United States","formattedAddress":["428 Greenwich St (btwn Vestry St & Laight St)","New York, NY 10013","United States"]},"categories":[{"id":"4bf58dd8d48988d1d2941735","name":"Sushi Restaurant","pluralName":"Sushi Restaurants","shortName":"Sushi","icon":{"prefix":"https:\/\/ss3.4sqi.net\/img\/categories_v2\/food\/sushi_","suffix":".png"},"primary":true}],"venuePage":{"id":"80223592"},"referralId":"v-1543293540","hasPerk":false},{"id":"5823559732824866cf704f5e","name":"Sabi Sushi","location":{"address":"One New York Plaza","lat":40.70255006748736,"lng":-74.01235600231722,"labeledLatLngs":[{"label":"display","lat":40.70255006748736,"lng":-74.01235600231722}],"distance":1080,"postalCode":"10004","cc":"US","city":"New York","state":"NY","country":"United States","formattedAddress":["One New York Plaza","New York, NY 10004","United States"]},"categories":[{"id":"4bf58dd8d48988d111941735","name":"Japanese Restaurant","pluralName":"Japanese Restaurants","shortName":"Japanese","icon":{"prefix":"https:\/\/ss3.4sqi.net\/img\/categories_v2\/food\/japanese_","suffix":".png"},"primary":true}],"referralId":"v-1543293540","hasPerk":false},{"id":"55875f4f498e9a8f0d34cef4","name":"Kikoo Sushi - East Village","location":{"address":"141 1st Ave","lat":40.728013177942024,"lng":-73.98502344368539,"labeledLatLngs":[{"label":"display","lat":40.728013177942024,"lng":-73.98502344368539}],"distance":3364,"postalCode":"10003","cc":"US","neighborhood":"East Village","city":"New York","state":"NY","country":"United States","formattedAddress":["141 1st Ave","New York, NY 10003","United States"]},"categories":[{"id":"4bf58dd8d48988d1d2941735","name":"Sushi Restaurant","pluralName":"Sushi Restaurants","shortName":"Sushi","icon":{"prefix":"https:\/\/ss3.4sqi.net\/img\/categories_v2\/food\/sushi_","suffix":".png"},"primary":true}],"delivery":{"id":"316568","url":"https:\/\/www.seamless.com\/menu\/kikoo-sushi-141-1st-ave-new-york\/316568?affiliate=1131&utm_source=foursquare-affiliate-network&utm_medium=affiliate&utm_campaign=1131&utm_content=316568","provider":{"name":"seamless","icon":{"prefix":"https:\/\/fastly.4sqi.net\/img\/general\/cap\/","sizes":[40,50],"name":"\/delivery_provider_seamless_20180129.png"}}},"venuePage":{"id":"146328457"},"referralId":"v-1543293540","hasPerk":false},{"id":"4ae7a786f964a52019ad21e3","name":"New Koto Sushi","location":{"address":"552 Henry St","crossStreet":"at Carrol. St","lat":40.682199517102816,"lng":-74.00033652465756,"labeledLatLngs":[{"label":"display","lat":40.682199517102816,"lng":-74.00033652465756}],"distance":1981,"postalCode":"11231","cc":"US","city":"Brooklyn","state":"NY","country":"United States","formattedAddress":["552 Henry St (at Carrol. St)","Brooklyn, NY 11231","United States"]},"categories":[{"id":"4bf58dd8d48988d1d2941735","name":"Sushi Restaurant","pluralName":"Sushi Restaurants","shortName":"Sushi","icon":{"prefix":"https:\/\/ss3.4sqi.net\/img\/categories_v2\/food\/sushi_","suffix":".png"},"primary":true}],"delivery":{"id":"284854","url":"https:\/\/www.seamless.com\/menu\/new-koto-sushi-552-henry-st-brooklyn\/284854?affiliate=1131&utm_source=foursquare-affiliate-network&utm_medium=affiliate&utm_campaign=1131&utm_content=284854","provider":{"name":"seamless","icon":{"prefix":"https:\/\/fastly.4sqi.net\/img\/general\/cap\/","sizes":[40,50],"name":"\/delivery_provider_seamless_20180129.png"}}},"referralId":"v-1543293540","hasPerk":false},{"id":"4c6c32b0e13db60c0265d5b1","name":"JR Sushi","location":{"address":"86A West Broadway","crossStreet":"Warren St \/ Murray St","lat":40.715194778169966,"lng":-74.00947899065828,"labeledLatLngs":[{"label":"display","lat":40.715194778169966,"lng":-74.00947899065828}],"distance":1871,"postalCode":"10007","cc":"US","city":"New York","state":"NY","country":"United States","formattedAddress":["86A West Broadway (Warren St \/ Murray St)","New York, NY 10007","United States"]},"categories":[{"id":"4bf58dd8d48988d1d2941735","name":"Sushi Restaurant","pluralName":"Sushi Restaurants","shortName":"Sushi","icon":{"prefix":"https:\/\/ss3.4sqi.net\/img\/categories_v2\/food\/sushi_","suffix":".png"},"primary":true}],"delivery":{"id":"258803","url":"https:\/\/www.seamless.com\/menu\/jr-sushi-86-w-broadway-ave-new-york\/258803?affiliate=1131&utm_source=foursquare-affiliate-network&utm_medium=affiliate&utm_campaign=1131&utm_content=258803","provider":{"name":"seamless","icon":{"prefix":"https:\/\/fastly.4sqi.net\/img\/general\/cap\/","sizes":[40,50],"name":"\/delivery_provider_seamless_20180129.png"}}},"referralId":"v-1543293540","hasPerk":false},{"id":"4b6b6ad0f964a52066072ce3","name":"Sushi Gallery","location":{"address":"78 Clark St","crossStreet":"at Henry St.","lat":40.69759512293347,"lng":-73.99323607647035,"labeledLatLngs":[{"label":"display","lat":40.69759512293347,"lng":-73.99323607647035}],"distance":630,"postalCode":"11201","cc":"US","city":"Brooklyn","state":"NY","country":"United States","formattedAddress":["78 Clark St (at Henry St.)","Brooklyn, NY 11201","United States"]},"categories":[{"id":"4bf58dd8d48988d1d2941735","name":"Sushi Restaurant","pluralName":"Sushi Restaurants","shortName":"Sushi","icon":{"prefix":"https:\/\/ss3.4sqi.net\/img\/categories_v2\/food\/sushi_","suffix":".png"},"primary":true}],"referralId":"v-1543293540","hasPerk":false},{"id":"4a20a2e9f964a520af7c1fe3","name":"Blue Ribbon Sushi Bar & Grill","location":{"address":"308 W 58th St","crossStreet":"btwn 8th & 9th Ave","lat":40.76765291211733,"lng":-73.98292545600036,"labeledLatLngs":[{"label":"display","lat":40.76765291211733,"lng":-73.98292545600036}],"distance":7667,"postalCode":"10019","cc":"US","city":"New York","state":"NY","country":"United States","formattedAddress":["308 W 58th St (btwn 8th & 9th Ave)","New York, NY 10019","United States"]},"categories":[{"id":"4bf58dd8d48988d1d2941735","name":"Sushi Restaurant","pluralName":"Sushi Restaurants","shortName":"Sushi","icon":{"prefix":"https:\/\/ss3.4sqi.net\/img\/categories_v2\/food\/sushi_","suffix":".png"},"primary":true}],"referralId":"v-1543293540","hasPerk":false},{"id":"45795395f964a520d23e1fe3","name":"Taro Sushi","location":{"address":"244 Flatbush Ave","crossStreet":"at St. Mark's Pl","lat":40.6797935707725,"lng":-73.97437684715055,"labeledLatLngs":[{"label":"display","lat":40.6797935707725,"lng":-73.97437684715055}],"distance":3120,"postalCode":"11217","cc":"US","city":"Brooklyn","state":"NY","country":"United States","formattedAddress":["244 Flatbush Ave (at St. Mark's Pl)","Brooklyn, NY 11217","United States"]},"categories":[{"id":"4bf58dd8d48988d1d2941735","name":"Sushi Restaurant","pluralName":"Sushi Restaurants","shortName":"Sushi","icon":{"prefix":"https:\/\/ss3.4sqi.net\/img\/categories_v2\/food\/sushi_","suffix":".png"},"primary":true}],"referralId":"v-1543293540","hasPerk":false},{"id":"5a0e475b018cbb6a2196479e","name":"Sushi By Bou","location":{"address":"49 W 20th St","lat":40.740883116531,"lng":-73.99352459209372,"labeledLatLngs":[{"label":"display","lat":40.740883116531,"lng":-73.99352459209372}],"distance":4583,"postalCode":"10011","cc":"US","city":"New York","state":"NY","country":"United States","formattedAddress":["49 W 20th St","New York, NY 10011","United States"]},"categories":[{"id":"4bf58dd8d48988d1d2941735","name":"Sushi Restaurant","pluralName":"Sushi Restaurants","shortName":"Sushi","icon":{"prefix":"https:\/\/ss3.4sqi.net\/img\/categories_v2\/food\/sushi_","suffix":".png"},"primary":true}],"referralId":"v-1543293540","hasPerk":false},{"id":"58ced029ccce316b14aecf9c","name":"Harajuku Sushi And Crepe Food Truck Nyc","location":{"address":"180 court street","lat":40.70392807525727,"lng":-74.0084660053253,"labeledLatLngs":[{"label":"display","lat":40.70392807525727,"lng":-74.0084660053253}],"distance":837,"postalCode":"11201","cc":"US","city":"Brooklyn","state":"NY","country":"United States","formattedAddress":["180 court street","Brooklyn, NY 11201","United States"]},"categories":[{"id":"4bf58dd8d48988d1cb941735","name":"Food Truck","pluralName":"Food Trucks","shortName":"Food Truck","icon":{"prefix":"https:\/\/ss3.4sqi.net\/img\/categories_v2\/food\/streetfood_","suffix":".png"},"primary":true}],"referralId":"v-1543293540","hasPerk":false},{"id":"4a3d65b7f964a52037a21fe3","name":"Sushi Choshi","location":{"address":"77 Irving Pl","crossStreet":"at 19th St","lat":40.73706004714431,"lng":-73.98662815695094,"labeledLatLngs":[{"label":"display","lat":40.73706004714431,"lng":-73.98662815695094}],"distance":4276,"postalCode":"10003","cc":"US","city":"New York","state":"NY","country":"United States","formattedAddress":["77 Irving Pl (at 19th St)","New York, NY 10003","United States"]},"categories":[{"id":"4bf58dd8d48988d1d2941735","name":"Sushi Restaurant","pluralName":"Sushi Restaurants","shortName":"Sushi","icon":{"prefix":"https:\/\/ss3.4sqi.net\/img\/categories_v2\/food\/sushi_","suffix":".png"},"primary":true}],"delivery":{"id":"278130","url":"https:\/\/www.seamless.com\/menu\/sushi-choshi-77-irving-pl-new-york\/278130?affiliate=1131&utm_source=foursquare-affiliate-network&utm_medium=affiliate&utm_campaign=1131&utm_content=278130","provider":{"name":"seamless","icon":{"prefix":"https:\/\/fastly.4sqi.net\/img\/general\/cap\/","sizes":[40,50],"name":"\/delivery_provider_seamless_20180129.png"}}},"referralId":"v-1543293540","hasPerk":false},{"id":"5820b05bb244c858db87c132","name":"Sabi Sushi","location":{"lat":40.702495,"lng":-74.010993,"labeledLatLngs":[{"label":"display","lat":40.702495,"lng":-74.010993}],"distance":968,"cc":"US","city":"New York","state":"NY","country":"United States","formattedAddress":["New York, NY","United States"]},"categories":[{"id":"4bf58dd8d48988d142941735","name":"Asian Restaurant","pluralName":"Asian Restaurants","shortName":"Asian","icon":{"prefix":"https:\/\/ss3.4sqi.net\/img\/categories_v2\/food\/asian_","suffix":".png"},"primary":true}],"referralId":"v-1543293540","hasPerk":false},{"id":"52cc198b498e6b2353aa4600","name":"Sushi Seki Chelsea","location":{"address":"208 W 23rd St","crossStreet":"btwn 7th & 8th Ave.","lat":40.74426,"lng":-73.99628,"labeledLatLngs":[{"label":"display","lat":40.74426,"lng":-73.99628}],"distance":4936,"postalCode":"10011","cc":"US","city":"New York","state":"NY","country":"United States","formattedAddress":["208 W 23rd St (btwn 7th & 8th Ave.)","New York, NY 10011","United States"]},"categories":[{"id":"4bf58dd8d48988d1d2941735","name":"Sushi Restaurant","pluralName":"Sushi Restaurants","shortName":"Sushi","icon":{"prefix":"https:\/\/ss3.4sqi.net\/img\/categories_v2\/food\/sushi_","suffix":".png"},"primary":true}],"referralId":"v-1543293540","hasPerk":false},{"id":"588f81a90319b8649b501311","name":"Sushi Kano","location":{"address":"1095 6th Avenue","lat":40.754956,"lng":-73.984696,"labeledLatLngs":[{"label":"display","lat":40.754956,"lng":-73.984696}],"distance":6252,"postalCode":"10036","cc":"US","city":"New York","state":"NY","country":"United States","formattedAddress":["1095 6th Avenue","New York, NY 10036","United States"]},"categories":[{"id":"4bf58dd8d48988d1c4941735","name":"Restaurant","pluralName":"Restaurants","shortName":"Restaurant","icon":{"prefix":"https:\/\/ss3.4sqi.net\/img\/categories_v2\/food\/default_","suffix":".png"},"primary":true}],"referralId":"v-1543293540","hasPerk":false},{"id":"49ecf7f1f964a520ba671fe3","name":"Hane Sushi","location":{"address":"346 1st Ave","crossStreet":"at E 20th St.","lat":40.73490193489146,"lng":-73.97984659715061,"labeledLatLngs":[{"label":"display","lat":40.73490193489146,"lng":-73.97984659715061}],"distance":4241,"postalCode":"10009","cc":"US","city":"New York","state":"NY","country":"United States","formattedAddress":["346 1st Ave (at E 20th St.)","New York, NY 10009","United States"]},"categories":[{"id":"4bf58dd8d48988d1d2941735","name":"Sushi Restaurant","pluralName":"Sushi Restaurants","shortName":"Sushi","icon":{"prefix":"https:\/\/ss3.4sqi.net\/img\/categories_v2\/food\/sushi_","suffix":".png"},"primary":true}],"delivery":{"id":"87183","url":"https:\/\/www.seamless.com\/menu\/hane-sushi-346-1st-ave-new-york\/87183?affiliate=1131&utm_source=foursquare-affiliate-network&utm_medium=affiliate&utm_campaign=1131&utm_content=87183","provider":{"name":"seamless","icon":{"prefix":"https:\/\/fastly.4sqi.net\/img\/general\/cap\/","sizes":[40,50],"name":"\/delivery_provider_seamless_20180129.png"}}},"referralId":"v-1543293540","hasPerk":false},{"id":"4beb39a962c0c92895e7e1d4","name":"Genji Sushi","location":{"address":"10 Columbus Circle","lat":40.76814517477797,"lng":-73.98294274493406,"labeledLatLngs":[{"label":"display","lat":40.76814517477797,"lng":-73.98294274493406}],"distance":7721,"postalCode":"10019","cc":"US","neighborhood":"Columbus Circle","city":"New York","state":"NY","country":"United States","formattedAddress":["10 Columbus Circle","New York, NY 10019","United States"]},"categories":[{"id":"4bf58dd8d48988d1d2941735","name":"Sushi Restaurant","pluralName":"Sushi Restaurants","shortName":"Sushi","icon":{"prefix":"https:\/\/ss3.4sqi.net\/img\/categories_v2\/food\/sushi_","suffix":".png"},"primary":true}],"referralId":"v-1543293540","hasPerk":false},{"id":"51bb39d77dd2ab9f2ed9f601","name":"Sushi Dojo NYC","location":{"address":"110 1st Ave","crossStreet":"btwn E 6th & E 7th St","lat":40.726760748253554,"lng":-73.98590196087609,"labeledLatLngs":[{"label":"display","lat":40.726760748253554,"lng":-73.98590196087609}],"distance":3207,"postalCode":"10009","cc":"US","neighborhood":"East Village","city":"New York","state":"NY","country":"United States","formattedAddress":["110 1st Ave (btwn E 6th & E 7th St)","New York, NY 10009","United States"]},"categories":[{"id":"4bf58dd8d48988d1d2941735","name":"Sushi Restaurant","pluralName":"Sushi Restaurants","shortName":"Sushi","icon":{"prefix":"https:\/\/ss3.4sqi.net\/img\/categories_v2\/food\/sushi_","suffix":".png"},"primary":true}],"delivery":{"id":"429880","url":"https:\/\/www.seamless.com\/menu\/sushi-dojo-110-1st-ave-new-york\/429880?affiliate=1131&utm_source=foursquare-affiliate-network&utm_medium=affiliate&utm_campaign=1131&utm_content=429880","provider":{"name":"seamless","icon":{"prefix":"https:\/\/fastly.4sqi.net\/img\/general\/cap\/","sizes":[40,50],"name":"\/delivery_provider_seamless_20180129.png"}}},"venuePage":{"id":"88067334"},"referralId":"v-1543293540","hasPerk":false},{"id":"53865330498e8a382396126c","name":"Niko Niko Sushi & Bowl","location":{"address":"133 John St","crossStreet":"btwn Water & John St","lat":40.70714273166702,"lng":-74.00505691766739,"labeledLatLngs":[{"label":"display","lat":40.70714273166702,"lng":-74.00505691766739}],"distance":902,"postalCode":"10038","cc":"US","city":"New York","state":"NY","country":"United States","formattedAddress":["133 John St (btwn Water & John St)","New York, NY 10038","United States"]},"categories":[{"id":"4bf58dd8d48988d1d2941735","name":"Sushi Restaurant","pluralName":"Sushi Restaurants","shortName":"Sushi","icon":{"prefix":"https:\/\/ss3.4sqi.net\/img\/categories_v2\/food\/sushi_","suffix":".png"},"primary":true}],"delivery":{"id":"300793","url":"https:\/\/www.seamless.com\/menu\/niko-niko-133-john-st-new-york\/300793?affiliate=1131&utm_source=foursquare-affiliate-network&utm_medium=affiliate&utm_campaign=1131&utm_content=300793","provider":{"name":"seamless","icon":{"prefix":"https:\/\/fastly.4sqi.net\/img\/general\/cap\/","sizes":[40,50],"name":"\/delivery_provider_seamless_20180129.png"}}},"referralId":"v-1543293540","hasPerk":false},{"id":"4b68c864f964a520b78c2be3","name":"Hana Sushi","location":{"address":"211 7th Ave","crossStreet":"22nd St","lat":40.74357402619103,"lng":-73.99602022374155,"labeledLatLngs":[{"label":"display","lat":40.74357402619103,"lng":-73.99602022374155}],"distance":4862,"postalCode":"10011","cc":"US","city":"New York","state":"NY","country":"United States","formattedAddress":["211 7th Ave (22nd St)","New York, NY 10011","United States"]},"categories":[{"id":"4bf58dd8d48988d1d2941735","name":"Sushi Restaurant","pluralName":"Sushi Restaurants","shortName":"Sushi","icon":{"prefix":"https:\/\/ss3.4sqi.net\/img\/categories_v2\/food\/sushi_","suffix":".png"},"primary":true}],"delivery":{"id":"275190","url":"https:\/\/www.seamless.com\/menu\/hana-sushi-211-7th-ave-new-york\/275190?affiliate=1131&utm_source=foursquare-affiliate-network&utm_medium=affiliate&utm_campaign=1131&utm_content=275190","provider":{"name":"seamless","icon":{"prefix":"https:\/\/fastly.4sqi.net\/img\/general\/cap\/","sizes":[40,50],"name":"\/delivery_provider_seamless_20180129.png"}}},"venuePage":{"id":"33890991"},"referralId":"v-1543293540","hasPerk":false},{"id":"4ad13e6ff964a520aadd20e3","name":"Koodo Sushi","location":{"address":"55 Liberty St","crossStreet":"at Nassau St","lat":40.70866738859084,"lng":-74.00936591982214,"labeledLatLngs":[{"label":"display","lat":40.70866738859084,"lng":-74.00936591982214}],"distance":1247,"postalCode":"10005","cc":"US","city":"New York","state":"NY","country":"United States","formattedAddress":["55 Liberty St (at Nassau St)","New York, NY 10005","United States"]},"categories":[{"id":"4bf58dd8d48988d111941735","name":"Japanese Restaurant","pluralName":"Japanese Restaurants","shortName":"Japanese","icon":{"prefix":"https:\/\/ss3.4sqi.net\/img\/categories_v2\/food\/japanese_","suffix":".png"},"primary":true}],"referralId":"v-1543293540","hasPerk":false},{"id":"4ac28e92f964a520b79920e3","name":"Sushi Seki UES","location":{"address":"1143 1st Ave","lat":40.761844267988,"lng":-73.96041193924857,"labeledLatLngs":[{"label":"display","lat":40.761844267988,"lng":-73.96041193924857}],"distance":7651,"postalCode":"10065","cc":"US","city":"New York","state":"NY","country":"United States","formattedAddress":["1143 1st Ave","New York, NY 10065","United States"]},"categories":[{"id":"4bf58dd8d48988d1d2941735","name":"Sushi Restaurant","pluralName":"Sushi Restaurants","shortName":"Sushi","icon":{"prefix":"https:\/\/ss3.4sqi.net\/img\/categories_v2\/food\/sushi_","suffix":".png"},"primary":true}],"referralId":"v-1543293540","hasPerk":false},{"id":"4a2c39b3f964a52036971fe3","name":"Kodama Sushi","location":{"address":"301 W 45th St","crossStreet":"at 8th Ave","lat":40.75929496467893,"lng":-73.98871374468041,"labeledLatLngs":[{"label":"display","lat":40.75929496467893,"lng":-73.98871374468041}],"distance":6668,"postalCode":"10036","cc":"US","city":"New York","state":"NY","country":"United States","formattedAddress":["301 W 45th St (at 8th Ave)","New York, NY 10036","United States"]},"categories":[{"id":"4bf58dd8d48988d1d2941735","name":"Sushi Restaurant","pluralName":"Sushi Restaurants","shortName":"Sushi","icon":{"prefix":"https:\/\/ss3.4sqi.net\/img\/categories_v2\/food\/sushi_","suffix":".png"},"primary":true}],"delivery":{"id":"497233","url":"https:\/\/www.seamless.com\/menu\/kodama-sushi-301-w-45th-st-new-york\/497233?affiliate=1131&utm_source=foursquare-affiliate-network&utm_medium=affiliate&utm_campaign=1131&utm_content=497233","provider":{"name":"seamless","icon":{"prefix":"https:\/\/fastly.4sqi.net\/img\/general\/cap\/","sizes":[40,50],"name":"\/delivery_provider_seamless_20180129.png"}}},"referralId":"v-1543293540","hasPerk":false},{"id":"4ae4bb20f964a520899d21e3","name":"Miyabi Sushi & Asian Cuisine","location":{"address":"118 W 3rd St","lat":40.73055476164609,"lng":-74.00032350405677,"labeledLatLngs":[{"label":"display","lat":40.73055476164609,"lng":-74.00032350405677}],"distance":3401,"postalCode":"10012","cc":"US","city":"New York","state":"NY","country":"United States","formattedAddress":["118 W 3rd St","New York, NY 10012","United States"]},"categories":[{"id":"4bf58dd8d48988d1d2941735","name":"Sushi Restaurant","pluralName":"Sushi Restaurants","shortName":"Sushi","icon":{"prefix":"https:\/\/ss3.4sqi.net\/img\/categories_v2\/food\/sushi_","suffix":".png"},"primary":true}],"delivery":{"id":"64198","url":"https:\/\/www.seamless.com\/menu\/miyabi-sushi-118-w-3rd-st-new-york\/64198?affiliate=1131&utm_source=foursquare-affiliate-network&utm_medium=affiliate&utm_campaign=1131&utm_content=64198","provider":{"name":"seamless","icon":{"prefix":"https:\/\/fastly.4sqi.net\/img\/general\/cap\/","sizes":[40,50],"name":"\/delivery_provider_seamless_20180129.png"}}},"referralId":"v-1543293540","hasPerk":false}]}}