{"meta":{"code":200,"requestId":"5bfccbf64c1f676746cefb17"},"response":{"venues":[{"id":"53a260a3498e8cd9ca270c92","name":"Football Concierge Nowhere FC","location":{"address":"100 Forsyth St","lat":40.718398,"lng":-73.992957,"labeledLatLngs":[{"label":"display","lat":40.718398,"lng":-73.992957}],"distance":2132,"postalCode":"10002","cc":"US","city":"New York","state":"NY","country":"United States","formattedAddress":["100 Forsyth St","New York, NY 10002","United States"]},"categories":[{"id":"52e81612bcbc57f1066b7a2e","name":"Sports Club","pluralName":"Sports Clubs","shortName":"Sports Club","icon":{"prefix":"https:\/\/ss3.4sqi.net\/img\/categories_v2\/shops\/sports_outdoors_","suffix":".png"},"primary":true}],"referralId":"v-1543293942","hasPerk":false},{"id":"55cb4feb498e3b8e82a37b8f","name":"Football Cafe","location":{"address":"100 Forsyth St","crossStreet":"Grand St","lat":40.71841431153061,"lng":-73.99331379984547,"labeledLatLngs":[{"label":"display","lat":40.71841431153061,"lng":-73.99331379984547}],"distance":2126,"postalCode":"10002","cc":"US","city":"New York","state":"NY","country":"United States","formattedAddress":["100 Forsyth St (Grand St)","New York, NY 10002","United States"]},"categories":[{"id":"4bf58dd8d48988d1e0931735","name":"Coffee Shop","pluralName":"Coffee Shops","shortName":"Coffee Shop","icon":{"prefix":"https:\/\/ss3.4sqi.net\/img\/categories_v2\/food\/coffeeshop_","suffix":".png"},"primary":true}],"venuePage":{"id":"137028295"},"referralId":"v-1543293942","hasPerk":false},{"id":"592193da65cdf831bc3ee2b5","name":"The Football Factory at Legends","location":{"address":"6 W 33rd St","crossStreet":"at 5th Ave","lat":40.74806553030747,"lng":-73.98569429069401,"labeledLatLngs":[{"label":"display","lat":40.74806553030747,"lng":-73.98569429069401}],"distance":5485,"postalCode":"10001","cc":"US","neighborhood":"Koreatown","city":"New York","state":"NY","country":"United States","formattedAddress":["6 W 33rd St (at 5th Ave)","New York, NY 10001","United States"]},"categories":[{"id":"4bf58dd8d48988d11d941735","name":"Sports Bar","pluralName":"Sports Bars","shortName":"Sports Bar","icon":{"prefix":"https:\/\/ss3.4sqi.net\/img\/categories_v2\/nightlife\/sportsbar_","suffix":".png"},"primary":true}],"referralId":"v-1543293942","hasPerk":false},{"id":"4d4f52879b27721e90d0a246","name":"Football-Free Zone","location":{"lat":40.727864,"lng":-74.000563,"labeledLatLngs":[{"label":"display","lat":40.727864,"lng":-74.000563}],"distance":3102,"cc":"US","state":"New York","country":"United States","formattedAddress":["New York","United States"]},"categories":[],"referralId":"v-1543293942","hasPerk":false},{"id":"4cbb7ba390c9a143bb6f95d6","name":"Football","location":{"address":"112 George St","crossStreet":"Wilson","lat":40.710317642189516,"lng":-73.92981380112892,"labeledLatLngs":[{"label":"display","lat":40.710317642189516,"lng":-73.92981380112892}],"distance":6033,"postalCode":"11237","cc":"US","city":"Brooklyn","state":"NY","country":"United States","formattedAddress":["112 George St (Wilson)","Brooklyn, NY 11237","United States"]},"categories":[{"id":"4bf58dd8d48988d1a2941735","name":"Community College","pluralName":"Community Colleges","shortName":"Community College","icon":{"prefix":"https:\/\/ss3.4sqi.net\/img\/categories_v2\/education\/communitycollege_","suffix":".png"},"primary":true}],"referralId":"v-1543293942","hasPerk":false},{"id":"4c9fa8b346978cfabc08ad7f","name":"Football Field","location":{"lat":40.6830458,"lng":-73.969316,"labeledLatLngs":[{"label":"display","lat":40.6830458,"lng":-73.969316}],"distance":3204,"postalCode":"11238","cc":"US","city":"Brooklyn","state":"NY","country":"United States","formattedAddress":["Brooklyn, NY 11238","United States"]},"categories":[{"id":"4bf58dd8d48988d163941735","name":"Park","pluralName":"Parks","shortName":"Park","icon":{"prefix":"https:\/\/ss3.4sqi.net\/img\/categories_v2\/parks_outdoors\/park_","suffix":".png"},"primary":true}],"referralId":"v-1543293942","hasPerk":false},{"id":"58dbad165e78963d7a4104d3","name":"New York City Football Club","location":{"address":"600 3rd Ave","lat":40.727982,"lng":-74.004227,"labeledLatLngs":[{"label":"display","lat":40.727982,"lng":-74.004227}],"distance":3135,"postalCode":"10016","cc":"US","city":"New York","state":"NY","country":"United States","formattedAddress":["600 3rd Ave","New York, NY 10016","United States"]},"categories":[{"id":"5665ef1d498ec706735f0e59","name":"Corporate Amenity","pluralName":"Corporate Amenities","shortName":"Corporate Amenity","icon":{"prefix":"https:\/\/ss3.4sqi.net\/img\/categories_v2\/building\/default_","suffix":".png"},"primary":true}],"referralId":"v-1543293942","hasPerk":false},{"id":"55ca68c6498eba2ffe441b1c","name":"Football Frenzzy Video games, Arcade, Party center","location":{"address":"33 W Westfield Ave.","lat":40.6615964514495,"lng":-74.26528215408325,"labeledLatLngs":[{"label":"display","lat":40.6615964514495,"lng":-74.26528215408325}],"distance":22799,"postalCode":"07204","cc":"US","city":"Roselle Park","state":"NJ","country":"United States","formattedAddress":["33 W Westfield Ave.","Roselle Park, NJ 07204","United States"]},"categories":[{"id":"4bf58dd8d48988d1e1931735","name":"Arcade","pluralName":"Arcades","shortName":"Arcade","icon":{"prefix":"https:\/\/ss3.4sqi.net\/img\/categories_v2\/arts_entertainment\/arcade_","suffix":".png"},"primary":true}],"venuePage":{"id":"136977049"},"referralId":"v-1543293942","hasPerk":false},{"id":"50e0c6e3e4b0f94bd92027ba","name":"Football Headquarters","location":{"address":"211 E 53rd St","crossStreet":"3rd Avenue","lat":40.75762846743941,"lng":-73.96803752913594,"labeledLatLngs":[{"label":"display","lat":40.75762846743941,"lng":-73.96803752913594}],"distance":6958,"postalCode":"10022","cc":"US","city":"New York","state":"NY","country":"United States","formattedAddress":["211 E 53rd St (3rd Avenue)","New York, NY 10022","United States"]},"categories":[{"id":"4deefb944765f83613cdba6e","name":"Historic Site","pluralName":"Historic Sites","shortName":"Historic Site","icon":{"prefix":"https:\/\/ss3.4sqi.net\/img\/categories_v2\/arts_entertainment\/historicsite_","suffix":".png"},"primary":true}],"referralId":"v-1543293942","hasPerk":false},{"id":"50412236e4b00a5804090a4d","name":"Park Slope Football HQ","location":{"address":"200 PPW","crossStreet":"15th","lat":40.66099496083402,"lng":-73.9801358541011,"labeledLatLngs":[{"label":"display","lat":40.66099496083402,"lng":-73.9801358541011}],"distance":4654,"postalCode":"11215","cc":"US","city":"Brooklyn","state":"NY","country":"United States","formattedAddress":["200 PPW (15th)","Brooklyn, NY 11215","United States"]},"categories":[{"id":"4d954b06a243a5684965b473","name":"Residential Building (Apartment \/ Condo)","pluralName":"Residential Buildings (Apartments \/ Condos)","shortName":"Residential","icon":{"prefix":"https:\/\/ss3.4sqi.net\/img\/categories_v2\/building\/apartment_","suffix":".png"},"primary":true}],"referralId":"v-1543293942","hasPerk":false},{"id":"4e74df2088775d593db368f4","name":"Hillside High School Football Field","location":{"address":"Conant Street","lat":40.7012985692109,"lng":-74.24179037407424,"labeledLatLngs":[{"label":"display","lat":40.7012985692109,"lng":-74.24179037407424}],"distance":20406,"postalCode":"07205","cc":"US","city":"Hillside","state":"NJ","country":"United States","formattedAddress":["Conant Street","Hillside, NJ 07205","United States"]},"categories":[{"id":"4bf58dd8d48988d162941735","name":"Other Great Outdoors","pluralName":"Other Great Outdoors","shortName":"Other Outdoors","icon":{"prefix":"https:\/\/ss3.4sqi.net\/img\/categories_v2\/parks_outdoors\/outdoors_","suffix":".png"},"primary":true}],"referralId":"v-1543293942","hasPerk":false},{"id":"4f09dc35e4b0ef60eefcf1fe","name":"New York Football Giant, Inc.","location":{"address":"1925 Giants Dr","lat":40.6692859246939,"lng":-73.99583810532737,"labeledLatLngs":[{"label":"display","lat":40.6692859246939,"lng":-73.99583810532737}],"distance":3437,"postalCode":"07073","cc":"US","city":"East Rutherford","state":"NY","country":"United States","formattedAddress":["1925 Giants Dr","East Rutherford, NY 07073","United States"]},"categories":[{"id":"4bf58dd8d48988d15f941735","name":"Field","pluralName":"Fields","shortName":"Field","icon":{"prefix":"https:\/\/ss3.4sqi.net\/img\/categories_v2\/parks_outdoors\/field_","suffix":".png"},"primary":true}],"referralId":"v-1543293942","hasPerk":false},{"id":"4e6d6645d1647053b9ad1269","name":"TV and Football","location":{"lat":40.716878433333335,"lng":-73.96000546666666,"labeledLatLngs":[{"label":"display","lat":40.716878433333335,"lng":-73.96000546666666}],"distance":3862,"postalCode":"11211","cc":"US","state":"New York","country":"United States","formattedAddress":["NY 11211","United States"]},"categories":[{"id":"4d4b7105d754a06375d81259","name":"Professional & Other Places","pluralName":"Professional & Other Places","shortName":"Professional","icon":{"prefix":"https:\/\/ss3.4sqi.net\/img\/categories_v2\/building\/default_","suffix":".png"},"primary":true}],"referralId":"v-1543293942","hasPerk":false},{"id":"4f8a8ef8e4b0cec3ac41539f","name":"Magic Football After Hours","location":{"lat":40.707621,"lng":-73.954482,"labeledLatLngs":[{"label":"display","lat":40.707621,"lng":-73.954482}],"distance":3933,"postalCode":"11211","cc":"US","city":"Brooklyn","state":"NY","country":"United States","formattedAddress":["Brooklyn, NY 11211","United States"]},"categories":[{"id":"4bf58dd8d48988d121941735","name":"Lounge","pluralName":"Lounges","shortName":"Lounge","icon":{"prefix":"https:\/\/ss3.4sqi.net\/img\/categories_v2\/nightlife\/default_","suffix":".png"},"primary":true}],"referralId":"v-1543293942","hasPerk":false},{"id":"4e7a9ce022715fd0fa8f74c2","name":"Dustbowl Football","location":{"lat":40.63268452794167,"lng":-74.01368482365693,"labeledLatLngs":[{"label":"display","lat":40.63268452794167,"lng":-74.01368482365693}],"distance":7582,"cc":"US","state":"New York","country":"United States","formattedAddress":["New York","United States"]},"categories":[{"id":"4bf58dd8d48988d189941735","name":"Football Stadium","pluralName":"Football Stadiums","shortName":"Football","icon":{"prefix":"https:\/\/ss3.4sqi.net\/img\/categories_v2\/arts_entertainment\/stadium_football_","suffix":".png"},"primary":true}],"referralId":"v-1543293942","hasPerk":false},{"id":"4e6d4892c65b18875f509375","name":"Zogs Football At JFK Stadium","location":{"lat":40.74962826401473,"lng":-74.03423804532208,"labeledLatLngs":[{"label":"display","lat":40.74962826401473,"lng":-74.03423804532208}],"distance":6234,"cc":"US","city":"Hoboken","state":"NJ","country":"United States","formattedAddress":["Hoboken, NJ","United States"]},"categories":[{"id":"4bf58dd8d48988d15f941735","name":"Field","pluralName":"Fields","shortName":"Field","icon":{"prefix":"https:\/\/ss3.4sqi.net\/img\/categories_v2\/parks_outdoors\/field_","suffix":".png"},"primary":true}],"referralId":"v-1543293942","hasPerk":false},{"id":"521e89c2498e8eb4e7bb74e5","name":"Bushwood Football League (BFL)","location":{"address":"139 E 27th St","crossStreet":"Lexington","lat":40.741911,"lng":-73.982551,"labeledLatLngs":[{"label":"display","lat":40.741911,"lng":-73.982551}],"distance":4892,"postalCode":"10016","cc":"US","city":"New York","state":"NY","country":"United States","formattedAddress":["139 E 27th St (Lexington)","New York, NY 10016","United States"]},"categories":[{"id":"4bf58dd8d48988d130941735","name":"Building","pluralName":"Buildings","shortName":"Building","icon":{"prefix":"https:\/\/ss3.4sqi.net\/img\/categories_v2\/building\/default_","suffix":".png"},"primary":true}],"referralId":"v-1543293942","hasPerk":false},{"id":"4ec2c181e30022f26b7f33d6","name":"National Football League","location":{"address":"345 Park Ave","lat":40.75767127446095,"lng":-73.97338675494841,"labeledLatLngs":[{"label":"display","lat":40.75767127446095,"lng":-73.97338675494841}],"distance":6801,"postalCode":"10154","cc":"US","city":"New York","state":"NY","country":"United States","formattedAddress":["345 Park Ave","New York, NY 10154","United States"]},"categories":[{"id":"4bf58dd8d48988d124941735","name":"Office","pluralName":"Offices","shortName":"Office","icon":{"prefix":"https:\/\/ss3.4sqi.net\/img\/categories_v2\/building\/default_","suffix":".png"},"primary":true}],"referralId":"v-1543293942","hasPerk":false},{"id":"4e74fc95c65bb91db429b246","name":"Feile Huskies Football","location":{"address":"131 W 33rd St","lat":40.74992409,"lng":-73.99009226,"labeledLatLngs":[{"label":"display","lat":40.74992409,"lng":-73.99009226}],"distance":5619,"postalCode":"10001","cc":"US","city":"New York","state":"NY","country":"United States","formattedAddress":["131 W 33rd St","New York, NY 10001","United States"]},"categories":[{"id":"4bf58dd8d48988d165941735","name":"Scenic Lookout","pluralName":"Scenic Lookouts","shortName":"Scenic Lookout","icon":{"prefix":"https:\/\/ss3.4sqi.net\/img\/categories_v2\/parks_outdoors\/sceniclookout_","suffix":".png"},"primary":true}],"delivery":{"id":"291989","url":"https:\/\/www.seamless.com\/menu\/feile-131-w-33rd-st-ste-1-new-york\/291989?affiliate=1131&utm_source=foursquare-affiliate-network&utm_medium=affiliate&utm_campaign=1131&utm_content=291989","provider":{"name":"seamless","icon":{"prefix":"https:\/\/fastly.4sqi.net\/img\/general\/cap\/","sizes":[40,50],"name":"\/delivery_provider_seamless_20180129.png"}}},"referralId":"v-1543293942","hasPerk":false},{"id":"4eb5540e4fc6167a83616ad9","name":"SU Football with Big Apple Orange!","location":{"address":"138 W 25th St","crossStreet":"btwn 6th & 7th","lat":40.74478596665598,"lng":-73.9934241771698,"labeledLatLngs":[{"label":"display","lat":40.74478596665598,"lng":-73.9934241771698}],"distance":5016,"postalCode":"10001","cc":"US","city":"New York","state":"NY","country":"United States","formattedAddress":["138 W 25th St (btwn 6th & 7th)","New York, NY 10001","United States"]},"categories":[{"id":"4bf58dd8d48988d116941735","name":"Bar","pluralName":"Bars","shortName":"Bar","icon":{"prefix":"https:\/\/ss3.4sqi.net\/img\/categories_v2\/nightlife\/pub_","suffix":".png"},"primary":true}],"referralId":"v-1543293942","hasPerk":false},{"id":"4c8a3cc91eafb1f740487835","name":"United Football League","location":{"address":"420 Lexington Ave","lat":40.7461,"lng":-73.979285,"labeledLatLngs":[{"label":"display","lat":40.7461,"lng":-73.979285}],"distance":5421,"postalCode":"10170","cc":"US","city":"New York","state":"NY","country":"United States","formattedAddress":["420 Lexington Ave","New York, NY 10170","United States"]},"categories":[{"id":"4bf58dd8d48988d124941735","name":"Office","pluralName":"Offices","shortName":"Office","icon":{"prefix":"https:\/\/ss3.4sqi.net\/img\/categories_v2\/building\/default_","suffix":".png"},"primary":true}],"referralId":"v-1543293942","hasPerk":false},{"id":"51ed2635498ef7a96dd05ba2","name":"NY Giants JR Football Camp","location":{"lat":40.7494,"lng":-74.00768,"labeledLatLngs":[{"label":"display","lat":40.7494,"lng":-74.00768}],"distance":5537,"cc":"US","city":"New York","state":"NY","country":"United States","formattedAddress":["New York, NY","United States"]},"categories":[{"id":"4f4528bc4b90abdf24c9de85","name":"Athletics & Sports","pluralName":"Athletics & Sports","shortName":"Athletics & Sports","icon":{"prefix":"https:\/\/ss3.4sqi.net\/img\/categories_v2\/shops\/sports_outdoors_","suffix":".png"},"primary":true}],"referralId":"v-1543293942","hasPerk":false},{"id":"4d84d67261676dcb60747be4","name":"ZogsportsNJ Football - Jersey City","location":{"address":"59-61 Brunswick St","lat":40.720115595313395,"lng":-74.05507589668454,"labeledLatLngs":[{"label":"display","lat":40.720115595313395,"lng":-74.05507589668454}],"distance":5158,"postalCode":"07302","cc":"US","city":"Jersey City","state":"NJ","country":"United States","formattedAddress":["59-61 Brunswick St","Jersey City, NJ 07302","United States"]},"categories":[{"id":"4bf58dd8d48988d189941735","name":"Football Stadium","pluralName":"Football Stadiums","shortName":"Football","icon":{"prefix":"https:\/\/ss3.4sqi.net\/img\/categories_v2\/arts_entertainment\/stadium_football_","suffix":".png"},"primary":true}],"referralId":"v-1543293942","hasPerk":false},{"id":"4c64598eebc3ef3b4b2e253f","name":"Thrillist Ultimate Fantasy Football Draft Suite","location":{"address":"135 W 41st St","crossStreet":"btw 6th Ave & Broadway","lat":40.754182,"lng":-73.985236,"labeledLatLngs":[{"label":"display","lat":40.754182,"lng":-73.985236}],"distance":6158,"postalCode":"10036","cc":"US","city":"New York","state":"NY","country":"United States","formattedAddress":["135 W 41st St (btw 6th Ave & Broadway)","New York, NY 10036","United States"]},"categories":[{"id":"4bf58dd8d48988d171941735","name":"Event Space","pluralName":"Event Spaces","shortName":"Event Space","icon":{"prefix":"https:\/\/ss3.4sqi.net\/img\/categories_v2\/building\/eventspace_","suffix":".png"},"primary":true}],"referralId":"v-1543293942","hasPerk":false},{"id":"52cef095498e500307cf6cf4","name":"New York City Football Club clubhouse","location":{"lat":40.750206452726374,"lng":-73.97665246458435,"labeledLatLngs":[{"label":"display","lat":40.750206452726374,"lng":-73.97665246458435}],"distance":5925,"cc":"US","city":"New York","state":"NY","country":"United States","formattedAddress":["New York, NY","United States"]},"categories":[{"id":"4bf58dd8d48988d124941735","name":"Office","pluralName":"Offices","shortName":"Office","icon":{"prefix":"https:\/\/ss3.4sqi.net\/img\/categories_v2\/building\/default_","suffix":".png"},"primary":true}],"referralId":"v-1543293942","hasPerk":false},{"id":"5805338338faf42e99df2cb0","name":"TH Hammerl Inc - Basketball, Football, Baseball & All Models","location":{"address":"51 E 42nd St","lat":40.7526822,"lng":-73.9783441,"labeledLatLngs":[{"label":"display","lat":40.7526822,"lng":-73.9783441}],"distance":6142,"postalCode":"10017","cc":"US","city":"New York","state":"NY","country":"United States","formattedAddress":["51 E 42nd St","New York, NY 10017","United States"]},"categories":[{"id":"4bf58dd8d48988d1f2941735","name":"Sporting Goods Shop","pluralName":"Sporting Goods Shops","shortName":"Sporting Goods","icon":{"prefix":"https:\/\/ss3.4sqi.net\/img\/categories_v2\/shops\/sports_outdoors_","suffix":".png"},"primary":true}],"referralId":"v-1543293942","hasPerk":false},{"id":"4ca12872d3c2b60ceb62e3bc","name":"United Football League","location":{"address":"420 Lexington Ave","lat":40.75298273333333,"lng":-73.9754641,"labeledLatLngs":[{"label":"display","lat":40.75298273333333,"lng":-73.9754641}],"distance":6250,"postalCode":"10170","cc":"US","city":"New York","state":"NY","country":"United States","formattedAddress":["420 Lexington Ave","New York, NY 10170","United States"]},"categories":[],"referralId":"v-1543293942","hasPerk":false},{"id":"55f6042e498e9121a73fa6a0","name":"Football cave","location":{"lat":40.542224411234066,"lng":-74.17095588201647,"labeledLatLngs":[{"label":"display","lat":40.542224411234066,"lng":-74.17095588201647}],"distance":22740,"cc":"US","city":"Staten Island","state":"NY","country":"United States","formattedAddress":["Staten Island, NY","United States"]},"categories":[{"id":"4bf58dd8d48988d1b0941735","name":"Fraternity House","pluralName":"Fraternity Houses","shortName":"Frat House","icon":{"prefix":"https:\/\/ss3.4sqi.net\/img\/categories_v2\/education\/frathouse_","suffix":".png"},"primary":true}],"referralId":"v-1543293942","hasPerk":false},{"id":"4e1b8115e4cd1f7c5d780a55","name":"Lil Man's Football Practice 4th Ward Park","location":{"address":"Bower St","lat":40.639335673809946,"lng":-74.24991135305275,"labeledLatLngs":[{"label":"display","lat":40.639335673809946,"lng":-74.24991135305275}],"distance":22155,"postalCode":"07039","cc":"US","city":"Linden","state":"NJ","country":"United States","formattedAddress":["Bower St","Linden, NJ 07039","United States"]},"categories":[{"id":"4bf58dd8d48988d15f941735","name":"Field","pluralName":"Fields","shortName":"Field","icon":{"prefix":"https:\/\/ss3.4sqi.net\/img\/categories_v2\/parks_outdoors\/field_","suffix":".png"},"primary":true}],"referralId":"v-1543293942","hasPerk":false},{"id":"5047e1aee4b0d1e83cf54b7a","name":"Byrnes' Football Haven","location":{"lat":40.75485,"lng":-73.97211,"labeledLatLngs":[{"label":"display","lat":40.75485,"lng":-73.97211}],"distance":6543,"postalCode":"10017","cc":"US","city":"New York","state":"NY","country":"United States","formattedAddress":["New York, NY 10017","United States"]},"categories":[],"referralId":"v-1543293942","hasPerk":false}]}}